{
	"regions": [
	{
		"name": "Northland",
		"value": [
		{
			"name": "Soundlounge",
			"address": "75 Kerikeri Rd, Kerikeri 0230",
			"lat": -35.227566,
			"lng": 173.9490258,
			"phone": "(09) 407 7101",
			"website": ""
		},
		{
			"name": "The Noise Company",
			"address": "106A Victoria St, Dargaville 0310",
			"lat": -35.9407711,
			"lng": 173.8000441,
			"phone": "(09) 439 6786",
			"website": ""
		},
		{
			"name": "The Noise Company",
			"address": "106A Victoria St, Dargaville 0310",
			"lat": -35.9407711,
			"lng": 173.8000441,
			"phone": "(09) 439 6786",
			"website": ""
		}
		]
	},
	{
		"name": "Auckland",
		"value": [
		{
			"name": "Rummage Retro and Collectables",
			"address": "523 Matakana Rd, Laly Haddon Place, Warkworth 0985",
			"lat": -36.3691205,
			"lng": 174.6825015,
			"phone": "(021) 442 071",
			"website": ""
		},
		{
			"name": "Southbound Records",
			"address": "132 Symonds Street, Eden Terrace, Auckland 1010",
			"lat": -36.8616556,
			"lng": 174.7620281,
			"phone": "(09) 302 0769",
			"website": "http://www.southbound.co.nz"
		},
		{
			"name": "Alien Records & CDs",
			"address": "9 Veronica St, New Lynn, Auckland 0600",
			"lat": -36.9075758,
			"lng": 174.688216,
			"phone": "(09) 827 7100",
			"website": "https://sites.google.com/a/alienrecordscds.com/alienrecordscds-com/"
		},
		{
			"name": "Audio Foundation",
			"address": "4 Poynton Terrace, Auckland, 1010",
			"lat": -36.8567036,
			"lng": 174.7597868,
			"phone": "(09) 373 5790",
			"website": "http://audiofoundation.org.nz"
		},
		{
			"name": "Rebel Soul Records",
			"address": "Samoa House Arcade, 283 Karangahape Rd, Auckland",
			"lat": -36.8574276,
			"lng": 174.7558111,
			"phone": "(09) 303 2744",
			"website": ""
		},
		{
			"name": "Conch Kitchen & Bar",
			"address": "115A Ponsonby Rd, Ponsonby, Auckland 1011",
			"lat": -36.8557852,
			"lng": 174.7445589,
			"phone": "(09) 360 1999",
			"website": "http://conch.co.nz"
		},
		{
			"name": "Real Groovy",
			"address": "369 Queen St, Auckland, 1010",
			"lat": -36.8550313,
			"lng": 174.7600744,
			"phone": "(09) 302 3940",
			"website": "http://realgroovy.co.nz"
		},
		{
			"name": "Marbecks",
			"address": "34 Queen St, Auckland, 1010",
			"lat": -36.8450811,
			"lng": 174.7644796,
			"phone": "(09) 379 0444",
			"website": "http://marbecksclassical.co.nz"
		},
		{
			"name": "Rec Records",
			"address": "38 Customs St E, Auckland, 1010",
			"lat": -36.8452914,
			"lng": 174.7670129,
			"phone": "",
			"website": "http://www.rec-akl.nz/"
		},
		{
			"name": "Flying Out Record Store",
			"address": "80 Pitt Street, Auckland 1010",
			"lat": -36.8452914,
			"lng": 174.7670129,
			"phone": "(09) 366 1755",
			"website": "http:/flyingout.co.nz/"
		},
		{
			"name": "Flying Out Record Store",
			"address": "80 Pitt Street, Auckland 1010",
			"lat": -36.8572167,
			"lng": 174.75697,
			"phone": "(09) 366 1755",
			"website": "http:/flyingout.co.nz/"
		},
		{
			"name": "Lake Rd Barbers",
			"address": "450 Lake Rd, Takapuna, Takapuna Beach 0622",
			"lat": -36.7899088,
			"lng": 174.7729777,
			"phone": "(09) 486 2260",
			"website": ""
		},
		{
			"name": "JPI Music",
			"address": "99 Parrs Cross Rd, Oratia",
			"lat": -36.9040117,
			"lng": 174.620593,
			"phone": "(09) 837 2656",
			"website": "http://justplaneinteresting.co.nz"
		},
		{
			"name": "Musiquarium",
			"address": "369 Dominion Rd, Mt Eden, Auckland",
			"lat": -36.8800147,
			"lng": 174.7475227,
			"phone": "(09) 630 9066",
			"website": "http://justplaneinteresting.co.nz"
		},
		{
			"name": "Mix Foundation",
			"address": "55-57 High St, Auckland, 1010",
			"lat": -36.8490682,
			"lng": 174.7638676,
			"phone": "(09) 303 4757",
			"website": "http://mixfoundation.co.nz"
		}
		]
	},
	{
		"name": "Central North Island",
		"value": [
		{
			"name": "Waikato Second Hand Centre",
			"address": "441 Anglesea St, Hamilton 3204",
			"lat": -37.7842071,
			"lng": 175.2744425,
			"phone": "(07) 839 3570",
			"website": "http://waikatosecondhand.co.nz"
		},
		{
			"name": "Needle in the Hay",
			"address": "300a Racquet Lane",
			"lat": -37.784871,
			"lng": 175.2768741,
			"phone": "(07) 839 3570",
			"website": ""
		},
		{
			"name": "The Refinery",
			"address": "5 Willoughby St, Paeroa 3600",
			"lat": -37.3792703,
			"lng": 175.668136,
			"phone": "(07) 862 7678",
			"website": "http://www.the-refinery.co.nz"
		},
		{
			"name": "Second Thoughts Collectables",
			"address": "136 Whitaker St, Te Aroha, 3320",
			"lat": -37.5437593,
			"lng": 175.7106919,
			"phone": "(07) 884 4261",
			"website": "https://www.facebook.com/secondthoughtscollectables/"
		},
		{
			"name": "Tracs Records",
			"address": "39 Devonport Rd, Tauranga, 3110",
			"lat": -37.6854837,
			"lng": 176.167206,
			"phone": "(07) 571 0466",
			"website": "https://www.facebook.com/secondthoughtscollectables/"
		},
		{
			"name": "Old Grumpy's Gallery",
			"address": "276 Maunganui Rd, Mount Maunganui, Tauranga 3116",
			"lat": -37.6418447,
			"lng": 176.1829331,
			"phone": "(07) 571 0466",
			"website": "http://oldgrumpys.co.nz"
		},
		{
			"name": "Vinyl Destination",
			"address": "52 Devonport Rd, Tauranga, 3110",
			"lat": -37.6852893,
			"lng": 176.1676072,
			"phone": "(021) 213 5755",
			"website": ""
		},
		{
			"name": "Mt Bookworm",
			"address": "330 Maunganui Rd, Mount Maunganui, Tauranga 3116",
			"lat": -37.6431291,
			"lng": 176.1844239,
			"phone": "(07) 572 1346",
			"website": "http://www.mtbookworm.co.nz/"
		},
		{
			"name": "My Music Taupo",
			"address": "79 Tongariro St, Taupo 3377",
			"lat": -38.6869705,
			"lng": 176.067593,
			"phone": "(07) 378 2844",
			"website": "https://www.facebook.com/mymusictaupo1"
		},
		{
			"name": "Vinyl Countdown",
			"address": "109 Devon St W, New Plymouth 4310",
			"lat": -39.0588171,
			"lng": 174.0688259,
			"phone": "(06) 758 0064",
			"website": "https://www.vinylcountdown.co.nz/"
		},
		{
			"name": "Chadz Antiques",
			"address": "50 Liardet St, New Plymouth 4310",
			"lat": -39.0575787,
			"lng": 174.0739385,
			"phone": "(06) 758 4966",
			"website": "https://myantiqueshops.co.nz"
		},
		{
			"name": "Hi Fi Gallery / Just for the Record",
			"address": "183 Dickens St, Napier South, Napier 4110",
			"lat": -39.4915215,
			"lng": 176.9148901,
			"phone": "(06) 835 2234",
			"website": "https://hifigallery.co.nz"
		},
		{
			"name": "Electric City Music & Video Services",
			"address": "61 Dalton St, Napier 4140",
			"lat": -39.4910241,
			"lng": 176.913676,
			"phone": "(06) 835 5358",
			"website": "https://ecmvideo.co.nz"
		},
		{
			"name": "Passionate about Vinyl",
			"address": "Main Street, Waipukurau 4200, Hawke's Bay",
			"lat": -39.9435499,
			"lng": 176.585332,
			"phone": "",
			"website": ""
		},
		{
			"name": "Music Box Record Exchange",
			"address": "346 Heretaunga St W, St Leonards, Hastings 4122",
			"lat": -39.6393299,
			"lng": 176.8381541,
			"phone": "(06) 878 2479",
			"website": ""
		}
		]
	},
	{
		"name": "Wellington/Wairarapa",
		"value": [
		{
			"name": "Goldie's Junk 'n Disorderly",
			"address": "16 Main St, Foxton, New Zealand 4814",
			"lat": -40.4720978,
			"lng": 175.2792355,
			"phone": "(06) 363 6950",
			"website": "https://www.facebook.com/Goldies-Junk-n-Disorderly-172250802837727"
		},
		{
			"name": "Rough Peel Music",
			"address": "173 Cuba St, Te Aro, Wellington 6011",
			"lat": -41.2941094,
			"lng": 174.7732089,
			"phone": "(04) 803 3726",
			"website": "https://www.roughpeel.co.nz"
		},
		{
			"name": "Death Ray Records",
			"address": "6 Wilson St, Newtown, Wellington 6021",
			"lat": -41.3125987,
			"lng": 174.7804781,
			"phone": "(04) 389 8014",
			"website": "https://www.deathrayrecords.com/"
		},
		{
			"name": "Lo-Cost Records",
			"address": "147 Jackson St, Petone",
			"lat": -41.2247111,
			"lng": 174.8748301,
			"phone": "(04) 939 2609",
			"website": "https://www.moonhop.com/"
		},
		{
			"name": "Wonderland Records",
			"address": "2 Moore's Valley Road, Wainuiomata, 6008",
			"lat": -41.272447,
			"lng": 174.9520493,
			"phone": "(04) 939 7581",
			"website": "http://wonderland_recs.tripod.com/"
		},
		{
			"name": "Mint Music",
			"address": "258 High St, Lower Hutt 5010",
			"lat": -41.2083229,
			"lng": 174.903125,
			"phone": "(04) 566 2580",
			"website": "http://mintmusic.co.nz"
		},
		{
			"name": "Bizzare Attractions",
			"address": "142 High Street N, Carterton, Wairarapa",
			"lat": -41.0230198,
			"lng": 175.5273905,
			"phone": "",
			"website": "http://www.myantiqueshops.co.nz/bizzare_attractions.html"
		}
		]
	},
	{
		"name": "South Island",
		"value": [
		{
			"name": "At Last Records",
			"address": "82 Stafford St, Timaru 7910",
			"lat": -44.3989108,
			"lng": 171.2534356,
			"phone": "(03) 688 3341",
			"website": "https://www.atlastrecordstimaru.co.nz/"
		},
		{
			"name": "West Coast Vinyl & Fashion",
			"address": "21 Revell St, Hokitika 7810",
			"lat": -42.7188708,
			"lng": 170.9571233,
			"phone": "027 907 9069",
			"website": "https://www.facebook.com/West-Coast-Vinyl-Fashion-769741239826272/"
		},
		{
			"name": "Galaxy Records",
			"address": "336 St Asaph St, Christchurch Central, Christchurch 8011",
			"lat": -43.5364672,
			"lng": 172.6457805,
			"phone": "(03) 379 8852",
			"website": "http://www.galaxyrecords.co.nz"
		},
		{
			"name": "Spooky Boogie",
			"address": "54 London St, Lyttelton 8082",
			"lat": -43.6020894,
			"lng": 172.7176149,
			"phone": "027 242 2854",
			"website": "https://www.facebook.com/spookyookyooky/"
		},
		{
			"name": "Penny Lane Records",
			"address": "430 Colombo St, Sydenham, Christchurch 8023",
			"lat": -43.5436942,
			"lng": 172.6345367,
			"phone": "(03) 366 3278",
			"website": "http://www.pennylanerecords.co.nz"
		},
		{
			"name": "Sashana Surf",
			"address": "The Tannery, 35 Tanner St Christchurch",
			"lat": -43.5578628,
			"lng": 172.6775798,
			"phone": "(03) 389 5611",
			"website": "http://www.sadhanasurfboards.co.nz"
		}
		]
	}
	]
}