{
	"regions": [
	{
		"name": "Northland",
    "lat": -35.8030898,
    "lng": 173.9666084,
    "zoom": 8,
		"value": [
		{
			"name": "Soundlounge",
			"address": "75 Kerikeri Rd, Kerikeri 0230",
			"lat": -35.2274994,
			"lng": 173.9488917,
			"phone": "(09) 407 7101",
			"website": "N/A"
		},
		{
			"name": "The Noise Company",
			"address": "106A Victoria St, Dargaville 0310",
			"lat": -35.9406625,
			"lng": 173.8695539,
			"phone": "(09) 439 6786",
			"website": "N/A"
		}
		]
	},
	{
		"name": "Auckland",
    "lat": -36.8621448,
    "lng": 174.585286,
    "zoom": 10,
		"value": [
		{
			"name": "Rummage Retro and Collectables",
			"address": "523 Matakana Rd, Laly Haddon Place, Warkworth 0985",
			"lat": -36.3690828,
			"lng": 174.6821152,
			"phone": "(021) 442 071",
			"website": "N/A"
		},
		{
			"name": "Southbound Records",
			"address": "132 Symonds Street, Eden Terrace, Auckland 1010",
			"lat": -36.861592,
			"lng": 174.7618963,
			"phone": "(09) 302 0769",
			"website": "http://www.southbound.co.nz"
		},
		{
			"name": "Alien Records & CDs",
			"address": "9 Veronica St, New Lynn, Auckland 0600",
			"lat": -36.9074734,
			"lng": 174.6879451,
			"phone": "(09) 827 7100",
			"website": "http://sites.google.com/a/alienrecordscds.com/alienrecordscds-com/"
		},
		{
			"name": "Audio Foundation",
			"address": "4 Poynton Terrace, Auckland, 1010",
			"lat": -36.8565254,
			"lng": 174.7597798,
			"phone": "(09) 373 5790",
			"website": "http://audiofoundation.org.nz"
		},
		{
			"name": "Rebel Soul Records",
			"address": "Samoa House Arcade, 283 Karangahape Rd, Auckland",
			"lat": -36.8574429,
			"lng": 174.7579897,
			"phone": "(09) 303 2744",
			"website": "https://www.facebook.com/Rebel-Soul-Records-1444361799202684/"
		},
		{
			"name": "Conch Kitchen & Bar",
			"address": "115A Ponsonby Rd, Ponsonby, Auckland 1011",
			"lat": -36.8557204,
			"lng": 174.7467348,
			"phone": "(09) 360 1999",
			"website": "http://conch.co.nz"
		},
		{
			"name": "Real Groovy",
			"address": "369 Queen St, Auckland, 1010",
			"lat": -36.8605319,
			"lng": 174.7601773,
			"phone": "(09) 302 3940",
			"website": "http://realgroovy.co.nz"
		},
		{
			"name": "Marbecks",
			"address": "34 Queen St, Auckland, 1010",
			"lat": -36.8450408,
			"lng": 174.7664627,
			"phone": "(09) 379 0444",
			"website": "http://marbecksclassical.co.nz"
		},
		{
			"name": "Rec Records",
			"address": "38 Customs St E, Auckland, 1010",
			"lat": -36.8452299,
			"lng": 174.7690741,
			"phone": "N/A",
			"website": "http://www.rec-akl.nz/"
		},
		{
			"name": "Flying Out Record Store",
			"address": "80 Pitt Street, Auckland 1010",
			"lat": -36.8572395,
			"lng": 174.7594682,
			"phone": "(09) 366 1755",
			"website": "http:/flyingout.co.nz/"
		},
		{
			"name": "Lake Rd Barbers",
			"address": "450 Lake Rd, Takapuna, Takapuna Beach 0622",
			"lat": -36.7898446,
			"lng": 174.7728443,
			"phone": "(09) 486 2260",
			"website": "N/A"
		},
		{
			"name": "JPI Music",
			"address": "99 Parrs Cross Rd, Oratia",
			"lat": -36.9044023,
			"lng": 174.6224972,
			"phone": "(09) 837 2656",
			"website": "http://justplaneinteresting.co.nz"
		},
		{
			"name": "Musiquarium",
			"address": "369 Dominion Rd, Mt Eden, Auckland",
			"lat": -36.87996,
			"lng": 174.7495924,
			"phone": "(09) 630 9066",
			"website": "http://justplaneinteresting.co.nz"
		},
		{
			"name": "Mix Foundation",
			"address": "55-57 High St, Auckland, 1010",
			"lat": -36.8485872,
			"lng": 174.7660953,
			"phone": "(09) 303 4757",
			"website": "http://mixfoundation.co.nz"
		}
		]
	},
	{
		"name": "Central North Island",
    "lat": -39.0532522,
    "lng": 175.5056781,
    "zoom": 7,
		"value": [
		{
			"name": "Waikato Second Hand Centre",
			"address": "441 Anglesea St, Hamilton 3204",
			"lat": -37.7843695,
			"lng": 175.2741695,
			"phone": "(07) 839 3570",
			"website": "http://waikatosecondhand.co.nz"
		},
		{
			"name": "Needle in the Hay",
			"address": "300a Racquet Lane",
			"lat": -37.784871,
			"lng": 175.2768741,
			"phone": "(07) 839 3570",
			"website": "N/A"
		},
		{
			"name": "The Refinery",
			"address": "5 Willoughby St, Paeroa 3600",
			"lat": -37.3793191,
			"lng": 175.6682832,
			"phone": "(07) 862 7678",
			"website": "http://www.the-refinery.co.nz"
		},
		{
			"name": "Second Thoughts Collectables",
			"address": "136 Whitaker St, Te Aroha, 3320",
			"lat": -37.540587,
			"lng": 175.7083641,
			"phone": "(07) 884 4261",
			"website": "http://www.facebook.com/secondthoughtscollectables/"
		},
		{
			"name": "Tracs Records",
			"address": "39 Devonport Rd, Tauranga, 3110",
			"lat": -37.6855341,
			"lng": 176.1673161,
			"phone": "(07) 571 0466",
			"website": "http://www.facebook.com/secondthoughtscollectables/"
		},
		{
			"name": "Old Grumpy's Gallery",
			"address": "276 Maunganui Rd, Mount Maunganui, Tauranga 3116",
			"lat": -37.6418447,
			"lng": 176.1829331,
			"phone": "(07) 571 0466",
			"website": "http://oldgrumpys.co.nz"
		},
		{
			"name": "Vinyl Destination",
			"address": "52 Devonport Rd, Tauranga, 3110",
			"lat": -37.6857176,
			"lng": 176.1675912,
			"phone": "(021) 213 5755",
			"website": "N/A"
		},
		{
			"name": "Mt Bookworm",
			"address": "330 Maunganui Rd, Mount Maunganui, Tauranga 3116",
			"lat": -37.6431334,
			"lng": 176.1844292,
			"phone": "(07) 572 1346",
			"website": "http://www.mtbookworm.co.nz/"
		},
		{
			"name": "My Music Taupo",
			"address": "79 Tongariro St, Taupo 3377",
			"lat": -38.6869747,
			"lng": 176.0675983,
			"phone": "(07) 378 2844",
			"website": "http://www.facebook.com/mymusictaupo1"
		},
		{
			"name": "Vinyl Countdown",
			"address": "109 Devon St W, New Plymouth 4310",
			"lat": -39.0589353,
			"lng": 174.0688906,
			"phone": "(06) 758 0064",
			"website": "http://www.vinylcountdown.co.nz/"
		},
		{
			"name": "Chadz Antiques",
			"address": "50 Liardet St, New Plymouth 4310",
			"lat": -39.0575787,
			"lng": 174.0739385,
			"phone": "(06) 758 4966",
			"website": "http://myantiqueshops.co.nz"
		},
		{
			"name": "Hi Fi Gallery / Just for the Record",
			"address": "183 Dickens St, Napier South, Napier 4110",
			"lat": -39.0576104,
			"lng": 174.0738502,
			"phone": "(06) 835 2234",
			"website": "http://hifigallery.co.nz"
		},
		{
			"name": "Electric City Music & Video Services",
			"address": "61 Dalton St, Napier 4140",
			"lat": -39.4911957,
			"lng": 176.9137041,
			"phone": "(06) 835 5358",
			"website": "http://ecmvideo.co.nz"
		},
		{
			"name": "Hawkes Bay Book & Record",
			"address": "66 Dalton St, Napier 4140",
			"lat": -39.4911817,
			"lng": 176.9158136,
			"phone": "N/A",
			"website": "N/A"
		},
		{
			"name": "Passionate about Vinyl",
			"address": "Main Street, Waipukurau 4200, Hawke's Bay",
			"lat": -39.9435499,
			"lng": 176.585332,
			"phone": "N/A",
			"website": "N/A"
		},
		{
			"name": "Music Box Record Exchange",
			"address": "346 Heretaunga St W, St Leonards, Hastings 4122",
			"lat": -39.6393625,
			"lng": 176.8380338,
			"phone": "(06) 878 2479",
			"website": "N/A"
		},
		{
			"name": "The Viking's Haul",
			"address": "61 Ross St, Woodville 4920",
			"lat": -40.3384984,
			"lng": 175.8689007,
			"phone": "(06) 376 5553",
			"website": "http://thevikingshaul.com"
		},
		{
			"name": "Ulo",
			"address": "4A Wallis St, Raglan",
			"lat": -37.7991969,
			"lng": 174.8678887,
			"phone": "N/A",
			"website": "https://www.facebook.com/pg/ulo.nz/"
		}
		]
	},
	{
		"name": "Wellington/Wairarapa",
    "lat": -41.1717956,
    "lng": 175.129089,
    "zoom": 9,
		"value": [
		{
			"name": "Goldie's Junk 'n Disorderly",
			"address": "16 Main St, Foxton, New Zealand 4814",
			"lat": -40.4721019,
			"lng": 175.2792408,
			"phone": "(06) 363 6950",
			"website": "http://www.facebook.com/Goldies-Junk-n-Disorderly-172250802837727"
		},
		{
			"name": "Rough Peel Music",
			"address": "173 Cuba St, Te Aro, Wellington 6011",
			"lat": -41.2940409,
			"lng": 174.7754632,
			"phone": "(04) 803 3726",
			"website": "http://www.roughpeel.co.nz"
		},
		{
			"name": "Slow Boat Records",
			"address": "183 Cuba St, Te Aro, Wellington 6001",
			"lat": -41.2944198,
			"lng": 174.7751303,
			"phone": "(04) 385 1330",
			"website": "http://slowboatrecords.co.nz/"
		},
		{
			"name": "Death Ray Records",
			"address": "6 Wilson St, Newtown, Wellington 6021",
			"lat": -41.3128535,
			"lng": 174.7792973,
			"phone": "(04) 389 8014",
			"website": "http://www.deathrayrecords.com/"
		},
		{
			"name": "Lo-Cost Records",
			"address": "147 Jackson St, Petone",
			"lat": -41.2245901,
			"lng": 174.8759324,
			"phone": "(04) 939 2609",
			"website": "http://www.moonhop.com/"
		},
		{
			"name": "Wonderland Records",
			"address": "2 Moore's Valley Road, Wainuiomata, 6008",
			"lat": -41.2723583,
			"lng": 174.9531248,
			"phone": "(04) 939 7581",
			"website": "http://wonderland_recs.tripod.com/"
		},
		{
			"name": "Mint Music",
			"address": "258 High St, Lower Hutt 5010",
			"lat": -41.208214,
			"lng": 174.9042273,
			"phone": "(04) 566 2580",
			"website": "http://mintmusic.co.nz"
		},
		{
			"name": "Bizzare Attractions",
			"address": "142 High Street N, Carterton, Wairarapa",
			"lat": -41.0229025,
			"lng": 175.5284982,
			"phone": "N/A",
			"website": "http://www.myantiqueshops.co.nz/bizzare_attractions.html"
		}
		]
	},
	{
		"name": "South Island",
    "lat": -43.490981,
    "lng": 171.0443438,
    "zoom":6,
		"value": [
		{
			"name": "At Last Records",
			"address": "82 Stafford St, Timaru 7910",
			"lat": -44.3988112,
			"lng": 171.2545379,
			"phone": "(03) 688 3341",
			"website": "http://www.atlastrecordstimaru.co.nz/"
		},
		{
			"name": "West Coast Vinyl & Fashion",
			"address": "21 Revell St, Hokitika 7810",
			"lat": -42.7187723,
			"lng": 170.9582364,
			"phone": "027 907 9069",
			"website": "http://www.facebook.com/West-Coast-Vinyl-Fashion-769741239826272/"
		},
		{
			"name": "Galaxy Records",
			"address": "336 St Asaph St, Christchurch Central, Christchurch 8011",
			"lat": -43.5366182,
			"lng": 172.6457795,
			"phone": "(03) 379 8852",
			"website": "http://www.galaxyrecords.co.nz"
		},
		{
			"name": "Spooky Boogie",
			"address": "54 London St, Lyttelton 8082",
			"lat": -43.6020933,
			"lng": 172.7176149,
			"phone": "027 242 2854",
			"website": "http://www.facebook.com/spookyookyooky/"
		},
		{
			"name": "Penny Lane Records",
			"address": "430 Colombo St, Sydenham, Christchurch 8023",
			"lat": -43.5436021,
			"lng": 172.6357776,
			"phone": "(03) 366 3278",
			"website": "http://www.pennylanerecords.co.nz"
		},
		{
			"name": "Sashana Surf",
			"address": "The Tannery, 35 Tanner St Christchurch",
			"lat": -43.5581274,
			"lng": 172.6774386,
			"phone": "(03) 389 5611",
			"website": "http://www.sadhanasurfboards.co.nz"
		},
		{
			"name": "Zodiac Records and Books",
			"address": "223 King Edward St, South Dunedin, Dunedin 9012",
			"lat": -45.8951698,
			"lng": 170.4997118,
			"phone": "(03) 455 3125",
			"website": "N/A"
		},
		{
			"name": "Disk Den",
			"address": "118 Princes St, Dunedin, 9016",
			"lat": -45.8758932,
			"lng": 170.5022572,
			"phone": "(03) 477 2280",
			"website": "N/A"
		},
		{
			"name": "Relics",
			"address": "86 St Andrew Street, Dunedin",
			"lat": -45.8717286,
			"lng": 170.5059372,
			"phone": "(03) 474 9394",
			"website": "http://relicsmusic.co.nz/"
		},
		{
			"name": "The Oddity",
			"address": "185 Main Rd, Waikouaiti 9510",
			"lat": -45.5953882,
			"lng": 170.6702845,
			"phone": "N/A",
			"website": "N/A"
		},
		{
			"name": "Rock n' Rolla Records",
			"address": "86 Spey St, Invercargill 9812",
			"lat": -46.4093724,
			"lng": 168.3461327,
			"phone": "N/A",
			"website": "http://www.facebook.com/RocknRollaNZ/"
		},
		{
			"name": "Trash Converters",
			"address": "106 Ronaldsay St, Palmerston 9061",
			"lat": -45.484393,
			"lng": 170.714547,
			"phone": "(03) 465 1767",
			"website": "http://www.myantiqueshops.co.nz/trash_converters.html"
		}
		]
	},
	{
		"name": "Online Traders",
		"value": [
		{
			"name": "Noise Worth Hearing",
			"website": "http://www.facebook.com/NOISEworthhearing/"
		},
		{
			"name": "Lingering Sound",
			"website": "http://www.facebook.com/lingeringsound/"
		},
		{
			"name": "Intamusic",
			"website": "http://www.intamusic.co.nz"
		},
		{
			"name": "Rockstuff",
			"website": "http://www.rockstuff.co.nz"
		},
		{
			"name": "Rezound Records",
			"website": "http://www.rezoundrekordz.com/"
		},
		{
			"name": "Monkey Killer Records",
			"website": "http://monkeykillerrecords.com"
		},
    {
			"name": "Black Circle Records",
			"website": "http://blackcircle.nz"
		}
		]
	}
	]
}
